{
  "henrys": {
    "id": "henrys",
    "name": "Henry's Diner",
    "address": "155 Bant St",
    "town": "Burlington",
    "state": "Vermont",
    "phone number": "802-862-9010",
    "hours": "6:15AM-1:45PM",
    "notes": [
      "This is my dad's favorite diner",
      "Good coffee",
      "Nice location in downtown"
    ]
  },
  "athens": {
    "id": "athens",
    "name": "Athens Diner",
    "address": "46 High Point Ctr",
    "town": "Colchester",
    "state": "Vermont",
    "phone number": "802-655-3455",
    "hours": "6AM-2PM, closed Mondays and Tuesdays",
    "notes": [
      "Dad's work friends get breakfast here on Thursdays",
      "Same menu as Henry's",
      "Not quite as good as Henry's"
    ]
  },
  "village": {
    "id": "village",
    "name": "Village Restaurant",
    "address": "74 S Main St",
    "town": "Hardwick",
    "state": "Vermont",
    "phone number": "802-472-5701",
    "hours": "6AM-8PM, closed Mondays",
    "notes": ["A bit of a trek, but it's real tasty"]
  },
  "creek-house": {
    "id": "creek-house",
    "name": "Creek House Diner",
    "address": " 1837 River St, Jct of Rte 12 & 107",
    "town": "Bethel",
    "state": "Vermont",
    "phone number": "802-234-9191",
    "hours": "7AM-3PM",
    "notes": [
      "A trek to get to, but good food if you're in the area",
      "Nice folks"
    ]
  },
  "four-aces": {
    "id": "four-aces",
    "name": "Four Aces Diner",
    "address": "23 Bridge St",
    "town": "West Lebanon",
    "state": "New Hampshire",
    "phone number": "603-298-5515",
    "hours": "7am-2pm",
    "notes": ["Just over the bridge into New Hampshire", "Excellent food"]
  },
  "common": {
    "id": "common",
    "name": "The Common Cafe",
    "address": "12 Depot Square",
    "town": "Northfield",
    "state": "Vermont",
    "phone number": "802-485-4011",
    "hours": "Mon, Wed-Fri:6AM-2PM, Sat & Sun: 7AM-1PM, closed Tuesday",
    "notes": ["Tasty little place in the town center"]
  },
  "als": {
    "id": "als",
    "name": "Al's French Fries",
    "address": "1251 Williston Rd",
    "town": "South Burlington",
    "state": "Vermont",
    "phone number": "80-862-9203",
    "hours": "10:30AM-12AM",
    "notes": [
      "Not a diner, but they deserve an honorable mention",
      "Wonderful old-style burger joint"
    ]
  },
  "red-arrow": {
    "id": "red-arrow",
    "name": "Red Arrow Diner",
    "address": "61 Lowell St",
    "town": "Manchester",
    "state": "New Hampshire",
    "phone number": "603-626-1118",
    "hours": "24 Hours",
    "notes": [
      "Arguably the best diner ever",
      "Makes the best reuben my dad has ever had"
    ]
  }
}
